$GPGGA,135645.578,3305.052,N,01109.562,E,1,12,1.0,0.0,M,0.0,M,,*6E
$GPGSA,A,3,01,02,03,04,05,06,07,08,09,10,11,12,1.0,1.0,1.0*30
$GPRMC,135645.578,A,3305.052,N,01109.562,E,3227.4,287.8,170323,000.0,W*4B
$GPGGA,135646.578,3305.372,N,01108.563,E,1,12,1.0,0.0,M,0.0,M,,*6C
$GPGSA,A,3,01,02,03,04,05,06,07,08,09,10,11,12,1.0,1.0,1.0*30
$GPRMC,135646.578,A,3305.372,N,01108.563,E,2320.0,285.2,170323,000.0,W*42
$GPGGA,135647.578,3305.570,N,01107.831,E,1,12,1.0,0.0,M,0.0,M,,*6C
$GPGSA,A,3,01,02,03,04,05,06,07,08,09,10,11,12,1.0,1.0,1.0*30
$GPRMC,135647.578,A,3305.570,N,01107.831,E,1615.5,295.9,170323,000.0,W*4D
$GPGGA,135648.578,3305.795,N,01107.368,E,1,12,1.0,0.0,M,0.0,M,,*6D
$GPGSA,A,3,01,02,03,04,05,06,07,08,09,10,11,12,1.0,1.0,1.0*30
$GPRMC,135648.578,A,3305.795,N,01107.368,E,996.6,273.0,170323,000.0,W*7B
$GPGGA,135649.578,3305.812,N,01107.038,E,1,12,1.0,0.0,M,0.0,M,,*6A
$GPGSA,A,3,01,02,03,04,05,06,07,08,09,10,11,12,1.0,1.0,1.0*30
$GPRMC,135649.578,A,3305.812,N,01107.038,E,2089.7,289.4,170323,000.0,W*49
$GPGGA,135650.578,3306.036,N,01106.400,E,1,12,1.0,0.0,M,0.0,M,,*61
$GPGSA,A,3,01,02,03,04,05,06,07,08,09,10,11,12,1.0,1.0,1.0*30
$GPRMC,135650.578,A,3306.036,N,01106.400,E,506.0,278.9,170323,000.0,W*76
$GPGGA,135651.578,3306.062,N,01106.235,E,1,12,1.0,0.0,M,0.0,M,,*61
$GPGSA,A,3,01,02,03,04,05,06,07,08,09,10,11,12,1.0,1.0,1.0*30
$GPRMC,135651.578,A,3306.062,N,01106.235,E,758.8,300.4,170323,000.0,W*74
$GPGGA,135652.578,3306.183,N,01106.029,E,1,12,1.0,0.0,M,0.0,M,,*63
$GPGSA,A,3,01,02,03,04,05,06,07,08,09,10,11,12,1.0,1.0,1.0*30
$GPRMC,135652.578,A,3306.183,N,01106.029,E,589.7,285.6,170323,000.0,W*79
$GPGGA,135653.578,3306.235,N,01105.844,E,1,12,1.0,0.0,M,0.0,M,,*6C
$GPGSA,A,3,01,02,03,04,05,06,07,08,09,10,11,12,1.0,1.0,1.0*30
$GPRMC,135653.578,A,3306.235,N,01105.844,E,1268.6,296.7,170323,000.0,W*4D
$GPGGA,135654.578,3306.416,N,01105.483,E,1,12,1.0,0.0,M,0.0,M,,*6B
$GPGSA,A,3,01,02,03,04,05,06,07,08,09,10,11,12,1.0,1.0,1.0*30
$GPRMC,135654.578,A,3306.416,N,01105.483,E,665.1,302.7,170323,000.0,W*79
$GPGGA,135655.578,3306.528,N,01105.308,E,1,12,1.0,0.0,M,0.0,M,,*62
$GPGSA,A,3,01,02,03,04,05,06,07,08,09,10,11,12,1.0,1.0,1.0*30
$GPRMC,135655.578,A,3306.528,N,01105.308,E,573.1,314.4,170323,000.0,W*70
$GPGGA,135656.578,3306.649,N,01105.184,E,1,12,1.0,0.0,M,0.0,M,,*63
$GPGSA,A,3,01,02,03,04,05,06,07,08,09,10,11,12,1.0,1.0,1.0*30
$GPRMC,135656.578,A,3306.649,N,01105.184,E,888.9,301.8,170323,000.0,W*78
$GPGGA,135657.578,3306.795,N,01104.948,E,1,12,1.0,0.0,M,0.0,M,,*6B
$GPGSA,A,3,01,02,03,04,05,06,07,08,09,10,11,12,1.0,1.0,1.0*30
$GPRMC,135657.578,A,3306.795,N,01104.948,E,278.0,329.2,170323,000.0,W*7C
$GPGGA,135658.578,3306.864,N,01104.906,E,1,12,1.0,0.0,M,0.0,M,,*6F
$GPGSA,A,3,01,02,03,04,05,06,07,08,09,10,11,12,1.0,1.0,1.0*30
$GPRMC,135658.578,A,3306.864,N,01104.906,E,767.5,323.6,170323,000.0,W*78
$GPGGA,135659.578,3307.045,N,01104.772,E,1,12,1.0,0.0,M,0.0,M,,*69
$GPGSA,A,3,01,02,03,04,05,06,07,08,09,10,11,12,1.0,1.0,1.0*30
$GPRMC,135659.578,A,3307.045,N,01104.772,E,939.5,321.0,170323,000.0,W*7F
$GPGGA,135700.578,3307.261,N,01104.597,E,1,12,1.0,0.0,M,0.0,M,,*69
$GPGSA,A,3,01,02,03,04,05,06,07,08,09,10,11,12,1.0,1.0,1.0*30
$GPRMC,135700.578,A,3307.261,N,01104.597,E,698.3,297.9,170323,000.0,W*78
$GPGGA,135701.578,3307.365,N,01104.402,E,1,12,1.0,0.0,M,0.0,M,,*60
$GPGSA,A,3,01,02,03,04,05,06,07,08,09,10,11,12,1.0,1.0,1.0*30
$GPRMC,135701.578,A,3307.365,N,01104.402,E,758.6,320.2,170323,000.0,W*7F
$GPGGA,135702.578,3307.537,N,01104.257,E,1,12,1.0,0.0,M,0.0,M,,*64
$GPGSA,A,3,01,02,03,04,05,06,07,08,09,10,11,12,1.0,1.0,1.0*30
$GPRMC,135702.578,A,3307.537,N,01104.257,E,991.4,297.8,170323,000.0,W*75
$GPGGA,135703.578,3307.684,N,01103.979,E,1,12,1.0,0.0,M,0.0,M,,*6E
$GPGSA,A,3,01,02,03,04,05,06,07,08,09,10,11,12,1.0,1.0,1.0*30
$GPRMC,135703.578,A,3307.684,N,01103.979,E,890.3,295.2,170323,000.0,W*70
$GPGGA,135704.578,3307.805,N,01103.722,E,1,12,1.0,0.0,M,0.0,M,,*6E
$GPGSA,A,3,01,02,03,04,05,06,07,08,09,10,11,12,1.0,1.0,1.0*30
$GPRMC,135704.578,A,3307.805,N,01103.722,E,1106.4,316.9,170323,000.0,W*41
$GPGGA,135705.578,3308.046,N,01103.495,E,1,12,1.0,0.0,M,0.0,M,,*60
$GPGSA,A,3,01,02,03,04,05,06,07,08,09,10,11,12,1.0,1.0,1.0*30
$GPRMC,135705.578,A,3308.046,N,01103.495,E,2560.7,301.0,170323,000.0,W*44
$GPGGA,135706.578,3308.460,N,01102.805,E,1,12,1.0,0.0,M,0.0,M,,*67
$GPGSA,A,3,01,02,03,04,05,06,07,08,09,10,11,12,1.0,1.0,1.0*30
$GPRMC,135706.578,A,3308.460,N,01102.805,E,5888.1,276.1,170323,000.0,W*49
$GPGGA,135707.578,3308.667,N,01100.869,E,1,12,1.0,0.0,M,0.0,M,,*6B
$GPGSA,A,3,01,02,03,04,05,06,07,08,09,10,11,12,1.0,1.0,1.0*30
$GPRMC,135707.578,A,3308.667,N,01100.869,E,2860.9,267.9,170323,000.0,W*44
$GPGGA,135708.578,3308.633,N,01059.921,E,1,12,1.0,0.0,M,0.0,M,,*65
$GPGSA,A,3,01,02,03,04,05,06,07,08,09,10,11,12,1.0,1.0,1.0*30
$GPRMC,135708.578,A,3308.633,N,01059.921,E,6287.2,285.6,170323,000.0,W*45
$GPGGA,135709.578,3309.184,N,01057.944,E,1,12,1.0,0.0,M,0.0,M,,*63
$GPGSA,A,3,01,02,03,04,05,06,07,08,09,10,11,12,1.0,1.0,1.0*30
$GPRMC,135709.578,A,3309.184,N,01057.944,E,3837.7,295.0,170323,000.0,W*45
$GPGGA,135710.578,3309.702,N,01056.831,E,1,12,1.0,0.0,M,0.0,M,,*61
$GPGSA,A,3,01,02,03,04,05,06,07,08,09,10,11,12,1.0,1.0,1.0*30
$GPRMC,135710.578,A,3309.702,N,01056.831,E,2201.6,283.9,170323,000.0,W*46
$GPGGA,135711.578,3309.874,N,01056.131,E,1,12,1.0,0.0,M,0.0,M,,*67
$GPGSA,A,3,01,02,03,04,05,06,07,08,09,10,11,12,1.0,1.0,1.0*30
$GPRMC,135711.578,A,3309.874,N,01056.131,E,2612.0,272.3,170323,000.0,W*44
$GPGGA,135712.578,3309.909,N,01055.266,E,1,12,1.0,0.0,M,0.0,M,,*6D
$GPGSA,A,3,01,02,03,04,05,06,07,08,09,10,11,12,1.0,1.0,1.0*30
$GPRMC,135712.578,A,3309.909,N,01055.266,E,2475.4,284.8,170323,000.0,W*4B
$GPGGA,135713.578,3310.116,N,01054.483,E,1,12,1.0,0.0,M,0.0,M,,*6E
$GPGSA,A,3,01,02,03,04,05,06,07,08,09,10,11,12,1.0,1.0,1.0*30
$GPRMC,135713.578,A,3310.116,N,01054.483,E,4006.3,276.0,170323,000.0,W*4C
$GPGGA,135714.578,3310.254,N,01053.165,E,1,12,1.0,0.0,M,0.0,M,,*66
$GPGSA,A,3,01,02,03,04,05,06,07,08,09,10,11,12,1.0,1.0,1.0*30
$GPRMC,135714.578,A,3310.254,N,01053.165,E,1863.4,318.2,170323,000.0,W*46
$GPGGA,135715.578,3310.667,N,01052.794,E,1,12,1.0,0.0,M,0.0,M,,*6A
$GPGSA,A,3,01,02,03,04,05,06,07,08,09,10,11,12,1.0,1.0,1.0*30
$GPRMC,135715.578,A,3310.667,N,01052.794,E,2137.1,300.9,170323,000.0,W*46
$GPGGA,135716.578,3311.012,N,01052.217,E,1,12,1.0,0.0,M,0.0,M,,*62
$GPGSA,A,3,01,02,03,04,05,06,07,08,09,10,11,12,1.0,1.0,1.0*30
$GPRMC,135716.578,A,3311.012,N,01052.217,E,3238.9,298.1,170323,000.0,W*43
$GPGGA,135717.578,3311.495,N,01051.311,E,1,12,1.0,0.0,M,0.0,M,,*6C
$GPGSA,A,3,01,02,03,04,05,06,07,08,09,10,11,12,1.0,1.0,1.0*30
$GPRMC,135717.578,A,3311.495,N,01051.311,E,4337.9,290.1,170323,000.0,W*4C
$GPGGA,135718.578,3311.978,N,01049.992,E,1,12,1.0,0.0,M,0.0,M,,*65
$GPGSA,A,3,01,02,03,04,05,06,07,08,09,10,11,12,1.0,1.0,1.0*30
$GPRMC,135718.578,A,3311.978,N,01049.992,E,2398.4,288.1,170323,000.0,W*42
$GPGGA,135719.578,3312.219,N,01049.251,E,1,12,1.0,0.0,M,0.0,M,,*6F
$GPGSA,A,3,01,02,03,04,05,06,07,08,09,10,11,12,1.0,1.0,1.0*30
$GPRMC,135719.578,A,3312.219,N,01049.251,E,2210.9,303.4,170323,000.0,W*43
$GPGGA,135720.578,3312.598,N,01048.674,E,1,12,1.0,0.0,M,0.0,M,,*69
$GPGSA,A,3,01,02,03,04,05,06,07,08,09,10,11,12,1.0,1.0,1.0*30
$GPRMC,135720.578,A,3312.598,N,01048.674,E,4044.6,285.1,170323,000.0,W*45
$GPGGA,135721.578,3312.943,N,01047.397,E,1,12,1.0,0.0,M,0.0,M,,*65
$GPGSA,A,3,01,02,03,04,05,06,07,08,09,10,11,12,1.0,1.0,1.0*30
$GPRMC,135721.578,A,3312.943,N,01047.397,E,1862.4,302.2,170323,000.0,W*4F
$GPGGA,135722.578,3313.253,N,01046.902,E,1,12,1.0,0.0,M,0.0,M,,*6A
$GPGSA,A,3,01,02,03,04,05,06,07,08,09,10,11,12,1.0,1.0,1.0*30
$GPRMC,135722.578,A,3313.253,N,01046.902,E,1862.4,302.2,170323,000.0,W*40
